[{
    "name":"Pacific Region",
    "abbr":"pac",
    "zoom":"0",
    "lat":"-20.000",
    "long":"180.000",
    "extent":""
},{
    "name":"Cook Islands",
    "abbr":"cook",
    "zoom":"6",
    "lat":"-21.2048",
    "long":"-159.7853",
    "extent":""
},{
    "name":"Federated States of Micronesia",
    "abbr":"fsm",
    "zoom":"6",
    "lat":"6.9806",
    "long":"158.2001",
    "extent":""
},{
    "name":"Fiji",
    "abbr":"fiji",
    "zoom":"4",
    "lat":"-17.3000",
    "long":"179.0000",
    "extent":""
},{
    "name":"Kiribati",
    "abbr":"kiribati",
    "zoom":"3",
    "lat":"0.2000",
    "long":"173.9300",
    "extent":""
},{
    "name":"Marshall Islands",
    "abbr":"marshall",
    "zoom":"6",
    "lat":"7.1060",
    "long":"171.3725",
    "extent":""
},{
    "name":"Nauru",
    "abbr":"nauru",
    "zoom":"6",
    "lat":"-0.5319",
    "long":"166.9092",
    "extent":""
},{
    "name":"Niue",
    "abbr":"niue",
    "zoom":"6",
    "lat":"-19.1100",
    "long":"-169.9700",
    "extent":""
},{
    "name":"Palau",
    "abbr":"palau",
    "zoom":"6",
    "lat":"7.3500",
    "long":"134.4667",
    "extent":""
},{
    "name":"Papua New Guinea",
    "abbr":"png",
    "zoom":"3",
    "lat":"-6.5000",
    "long":"147.8000",
    "extent":""
},{
    "name":"Samoa",
    "abbr":"samoa",
    "zoom":"6",
    "lat":"-13.8000",
    "long":"-172.1000",
    "extent":""
},{
    "name":"Solomon Islands",
    "abbr":"solomon",
    "zoom":"4",
    "lat":"-8.7000",
    "long":"159.4000",
    "extent":""
},{
    "name":"Tonga",
    "abbr":"tonga",
    "zoom":"4",
    "lat":"-20.0000",
    "long":"-174.6000",
    "extent":""
},{
    "name":"Tuvalu",
    "abbr":"tuvalu",
    "zoom":"6",
    "lat":"-8.5025",
    "long":"179.1949",
    "extent":""
},{
    "name":"Vanuatu",
    "abbr":"vanuatu",
    "zoom":"4",
    "lat":"-17.3000",
    "long":"169.0000",
    "extent":""
}]    

    

